[
  {
    "category": "anti-social-behaviour",
    "location_type": "Force",
    "location": {
      "latitude": "51.909841",
      "street": {
        "id": 708590,
        "name": "On or near Midwinter Avenue"
      },
      "longitude": "-2.085401"
    },
    "context": "",
    "outcome_status": null,
    "persistent_id": "",
    "id": 86954010,
    "location_subtype": "",
    "month": "2020-09"
  },
  {
    "category": "anti-social-behaviour",
    "location_type": "Force",
    "location": {
      "latitude": "51.906917",
      "street": {
        "id": 708502,
        "name": "On or near Hawthorn Road"
      },
      "longitude": "-2.110107"
    },
    "context": "",
    "outcome_status": null,
    "persistent_id": "",
    "id": 86954685,
    "location_subtype": "",
    "month": "2020-09"
  },
  {
    "category": "anti-social-behaviour",
    "location_type": "Force",
    "location": {
      "latitude": "51.902274",
      "street": {
        "id": 708178,
        "name": "On or near Swallowtail Close"
      },
      "longitude": "-2.122392"
    },
    "context": "",
    "outcome_status": null,
    "persistent_id": "",
    "id": 86954386,
    "location_subtype": "",
    "month": "2020-09"
  },
  {
    "category": "anti-social-behaviour",
    "location_type": "Force",
    "location": {
      "latitude": "51.908983",
      "street": {
        "id": 708559,
        "name": "On or near Waterloo Street"
      },
      "longitude": "-2.090633"
    },
    "context": "",
    "outcome_status": null,
    "persistent_id": "",
    "id": 86953947,
    "location_subtype": "",
    "month": "2020-09"
  },
  {
    "category": "anti-social-behaviour",
    "location_type": "Force",
    "location": {
      "latitude": "51.908922",
      "street": {
        "id": 708485,
        "name": "On or near Brooklyn Gardens"
      },
      "longitude": "-2.099805"
    },
    "context": "",
    "outcome_status": null,
    "persistent_id": "",
    "id": 86954536,
    "location_subtype": "",
    "month": "2020-09"
  },
  {
    "category": "anti-social-behaviour",
    "location_type": "Force",
    "location": {
      "latitude": "51.908509",
      "street": {
        "id": 708351,
        "name": "On or near Hester's Way Road"
      },
      "longitude": "-2.118179"
    },
    "context": "",
    "outcome_status": null,
    "persistent_id": "",
    "id": 86954378,
    "location_subtype": "",
    "month": "2020-09"
  },
  {
    "category": "anti-social-behaviour",
    "location_type": "Force",
    "location": {
      "latitude": "51.904414",
      "street": {
        "id": 708600,
        "name": "On or near King Street"
      },
      "longitude": "-2.080289"
    },
    "context": "",
    "outcome_status": null,
    "persistent_id": "",
    "id": 86954376,
    "location_subtype": "",
    "month": "2020-09"
  },
  {
    "category": "anti-social-behaviour",
    "location_type": "Force",
    "location": {
      "latitude": "51.909747",
      "street": {
        "id": 708613,
        "name": "On or near Elm Close"
      },
      "longitude": "-2.090954"
    },
    "context": "",
    "outcome_status": null,
    "persistent_id": "",
    "id": 86954340,
    "location_subtype": "",
    "month": "2020-09"
  },
  {
    "category": "anti-social-behaviour",
    "location_type": "Force",
    "location": {
      "latitude": "51.902400",
      "street": {
        "id": 708084,
        "name": "On or near Buckingham Avenue"
      },
      "longitude": "-2.103265"
    },
    "context": "",
    "outcome_status": null,
    "persistent_id": "",
    "id": 86954293,
    "location_subtype": "",
    "month": "2020-09"
  },
  {
    "category": "anti-social-behaviour",
    "location_type": "Force",
    "location": {
      "latitude": "51.903281",
      "street": {
        "id": 707909,
        "name": "On or near Devonshire Street"
      },
      "longitude": "-2.081508"
    },
    "context": "",
    "outcome_status": null,
    "persistent_id": "",
    "id": 86954290,
    "location_subtype": "",
    "month": "2020-09"
  },
  {
    "category": "anti-social-behaviour",
    "location_type": "Force",
    "location": {
      "latitude": "51.903281",
      "street": {
        "id": 707909,
        "name": "On or near Devonshire Street"
      },
      "longitude": "-2.081508"
    },
    "context": "",
    "outcome_status": null,
    "persistent_id": "",
    "id": 86954284,
    "location_subtype": "",
    "month": "2020-09"
  },
  {
    "category": "anti-social-behaviour",
    "location_type": "Force",
    "location": {
      "latitude": "51.901168",
      "street": {
        "id": 707891,
        "name": "On or near St James' Square"
      },
      "longitude": "-2.080879"
    },
    "context": "",
    "outcome_status": null,
    "persistent_id": "",
    "id": 86954280,
    "location_subtype": "",
    "month": "2020-09"
  },
  {
    "category": "anti-social-behaviour",
    "location_type": "Force",
    "location": {
      "latitude": "51.902400",
      "street": {
        "id": 708084,
        "name": "On or near Buckingham Avenue"
      },
      "longitude": "-2.103265"
    },
    "context": "",
    "outcome_status": null,
    "persistent_id": "",
    "id": 86954267,
    "location_subtype": "",
    "month": "2020-09"
  },
  {
    "category": "anti-social-behaviour",
    "location_type": "Force",
    "location": {
      "latitude": "51.902054",
      "street": {
        "id": 708176,
        "name": "On or near Barnyard Close"
      },
      "longitude": "-2.118307"
    },
    "context": "",
    "outcome_status": null,
    "persistent_id": "",
    "id": 86954541,
    "location_subtype": "",
    "month": "2020-09"
  },
  {
    "category": "anti-social-behaviour",
    "location_type": "Force",
    "location": {
      "latitude": "51.902634",
      "street": {
        "id": 708079,
        "name": "On or near Edinburgh Place"
      },
      "longitude": "-2.113062"
    },
    "context": "",
    "outcome_status": null,
    "persistent_id": "",
    "id": 86953662,
    "location_subtype": "",
    "month": "2020-09"
  },
  {
    "category": "anti-social-behaviour",
    "location_type": "Force",
    "location": {
      "latitude": "51.897121",
      "street": {
        "id": 708001,
        "name": "On or near Bayshill Lane"
      },
      "longitude": "-2.083415"
    },
    "context": "",
    "outcome_status": null,
    "persistent_id": "",
    "id": 86953817,
    "location_subtype": "",
    "month": "2020-09"
  },
  {
    "category": "anti-social-behaviour",
    "location_type": "Force",
    "location": {
      "latitude": "51.903263",
      "street": {
        "id": 708073,
        "name": "On or near Laxton Road"
      },
      "longitude": "-2.113150"
    },
    "context": "",
    "outcome_status": null,
    "persistent_id": "",
    "id": 86953783,
    "location_subtype": "",
    "month": "2020-09"
  },
  {
    "category": "anti-social-behaviour",
    "location_type": "Force",
    "location": {
      "latitude": "51.917712",
      "street": {
        "id": 708941,
        "name": "On or near Parking Area"
      },
      "longitude": "-2.103256"
    },
    "context": "",
    "outcome_status": null,
    "persistent_id": "",
    "id": 86953770,
    "location_subtype": "",
    "month": "2020-09"
  },
  {
    "category": "anti-social-behaviour",
    "location_type": "Force",
    "location": {
      "latitude": "51.914420",
      "street": {
        "id": 708411,
        "name": "On or near Carter Road"
      },
      "longitude": "-2.104339"
    },
    "context": "",
    "outcome_status": null,
    "persistent_id": "",
    "id": 86954242,
    "location_subtype": "",
    "month": "2020-09"
  },
  {
    "category": "anti-social-behaviour",
    "location_type": "Force",
    "location": {
      "latitude": "51.898274",
      "street": {
        "id": 708116,
        "name": "On or near Libertus Road"
      },
      "longitude": "-2.103066"
    },
    "context": "",
    "outcome_status": null,
    "persistent_id": "",
    "id": 86954507,
    "location_subtype": "",
    "month": "2020-09"
  },
  {
    "category": "anti-social-behaviour",
    "location_type": "Force",
    "location": {
      "latitude": "51.908983",
      "street": {
        "id": 708559,
        "name": "On or near Waterloo Street"
      },
      "longitude": "-2.090633"
    },
    "context": "",
    "outcome_status": null,
    "persistent_id": "",
    "id": 86954223,
    "location_subtype": "",
    "month": "2020-09"
  },
  {
    "category": "anti-social-behaviour",
    "location_type": "Force",
    "location": {
      "latitude": "51.914793",
      "street": {
        "id": 708419,
        "name": "On or near Shopping Area"
      },
      "longitude": "-2.099557"
    },
    "context": "",
    "outcome_status": null,
    "persistent_id": "",
    "id": 86954217,
    "location_subtype": "",
    "month": "2020-09"
  },
  {
    "category": "anti-social-behaviour",
    "location_type": "Force",
    "location": {
      "latitude": "51.899151",
      "street": {
        "id": 708162,
        "name": "On or near Stow Court"
      },
      "longitude": "-2.097473"
    },
    "context": "",
    "outcome_status": null,
    "persistent_id": "",
    "id": 86954193,
    "location_subtype": "",
    "month": "2020-09"
  },
  {
    "category": "anti-social-behaviour",
    "location_type": "Force",
    "location": {
      "latitude": "51.902001",
      "street": {
        "id": 708090,
        "name": "On or near Hospital"
      },
      "longitude": "-2.116984"
    },
    "context": "",
    "outcome_status": null,
    "persistent_id": "",
    "id": 86953538,
    "location_subtype": "",
    "month": "2020-09"
  },
  {
    "category": "anti-social-behaviour",
    "location_type": "Force",
    "location": {
      "latitude": "51.900991",
      "street": {
        "id": 708069,
        "name": "On or near Rowanfield Road"
      },
      "longitude": "-2.100645"
    },
    "context": "",
    "outcome_status": null,
    "persistent_id": "",
    "id": 86954177,
    "location_subtype": "",
    "month": "2020-09"
  },
  {
    "category": "anti-social-behaviour",
    "location_type": "Force",
    "location": {
      "latitude": "51.909738",
      "street": {
        "id": 708497,
        "name": "On or near Sports/recreation Area"
      },
      "longitude": "-2.111393"
    },
    "context": "",
    "outcome_status": null,
    "persistent_id": "",
    "id": 86953611,
    "location_subtype": "",
    "month": "2020-09"
  },
  {
    "category": "anti-social-behaviour",
    "location_type": "Force",
    "location": {
      "latitude": "51.890630",
      "street": {
        "id": 707987,
        "name": "On or near Hatherley Court Road"
      },
      "longitude": "-2.093647"
    },
    "context": "",
    "outcome_status": null,
    "persistent_id": "",
    "id": 86953974,
    "location_subtype": "",
    "month": "2020-09"
  },
  {
    "category": "anti-social-behaviour",
    "location_type": "Force",
    "location": {
      "latitude": "51.905711",
      "street": {
        "id": 708489,
        "name": "On or near Blenheim Square"
      },
      "longitude": "-2.110642"
    },
    "context": "",
    "outcome_status": null,
    "persistent_id": "",
    "id": 86953923,
    "location_subtype": "",
    "month": "2020-09"
  },
  {
    "category": "anti-social-behaviour",
    "location_type": "Force",
    "location": {
      "latitude": "51.908518",
      "street": {
        "id": 708583,
        "name": "On or near Queen Street"
      },
      "longitude": "-2.087303"
    },
    "context": "",
    "outcome_status": null,
    "persistent_id": "",
    "id": 86953922,
    "location_subtype": "",
    "month": "2020-09"
  },
  {
    "category": "anti-social-behaviour",
    "location_type": "Force",
    "location": {
      "latitude": "51.903449",
      "street": {
        "id": 708062,
        "name": "On or near Wilson Drive"
      },
      "longitude": "-2.116741"
    },
    "context": "",
    "outcome_status": null,
    "persistent_id": "",
    "id": 86953920,
    "location_subtype": "",
    "month": "2020-09"
  },
  {
    "category": "anti-social-behaviour",
    "location_type": "Force",
    "location": {
      "latitude": "51.910771",
      "street": {
        "id": 708598,
        "name": "On or near Malvern Street"
      },
      "longitude": "-2.091756"
    },
    "context": "",
    "outcome_status": null,
    "persistent_id": "",
    "id": 86953894,
    "location_subtype": "",
    "month": "2020-09"
  },
  {
    "category": "anti-social-behaviour",
    "location_type": "Force",
    "location": {
      "latitude": "51.912432",
      "street": {
        "id": 708498,
        "name": "On or near Sports/recreation Area"
      },
      "longitude": "-2.115063"
    },
    "context": "",
    "outcome_status": null,
    "persistent_id": "",
    "id": 86953614,
    "location_subtype": "",
    "month": "2020-09"
  },
  {
    "category": "anti-social-behaviour",
    "location_type": "Force",
    "location": {
      "latitude": "51.913594",
      "street": {
        "id": 708445,
        "name": "On or near Persimmon Gardens"
      },
      "longitude": "-2.112609"
    },
    "context": "",
    "outcome_status": null,
    "persistent_id": "",
    "id": 86953805,
    "location_subtype": "",
    "month": "2020-09"
  },
  {
    "category": "anti-social-behaviour",
    "location_type": "Force",
    "location": {
      "latitude": "51.903235",
      "street": {
        "id": 708061,
        "name": "On or near Yalta Close"
      },
      "longitude": "-2.114328"
    },
    "context": "",
    "outcome_status": null,
    "persistent_id": "",
    "id": 86953802,
    "location_subtype": "",
    "month": "2020-09"
  },
  {
    "category": "anti-social-behaviour",
    "location_type": "Force",
    "location": {
      "latitude": "51.908944",
      "street": {
        "id": 708466,
        "name": "On or near Lee Close"
      },
      "longitude": "-2.105329"
    },
    "context": "",
    "outcome_status": null,
    "persistent_id": "",
    "id": 86953785,
    "location_subtype": "",
    "month": "2020-09"
  },
  {
    "category": "anti-social-behaviour",
    "location_type": "Force",
    "location": {
      "latitude": "51.897667",
      "street": {
        "id": 708113,
        "name": "On or near Monks Croft"
      },
      "longitude": "-2.117162"
    },
    "context": "",
    "outcome_status": null,
    "persistent_id": "",
    "id": 86953748,
    "location_subtype": "",
    "month": "2020-09"
  },
  {
    "category": "anti-social-behaviour",
    "location_type": "Force",
    "location": {
      "latitude": "51.894015",
      "street": {
        "id": 708141,
        "name": "On or near Finstock Close"
      },
      "longitude": "-2.109654"
    },
    "context": "",
    "outcome_status": null,
    "persistent_id": "",
    "id": 86953439,
    "location_subtype": "",
    "month": "2020-09"
  },
  {
    "category": "anti-social-behaviour",
    "location_type": "Force",
    "location": {
      "latitude": "51.903281",
      "street": {
        "id": 707909,
        "name": "On or near Devonshire Street"
      },
      "longitude": "-2.081508"
    },
    "context": "",
    "outcome_status": null,
    "persistent_id": "",
    "id": 86953434,
    "location_subtype": "",
    "month": "2020-09"
  },
  {
    "category": "anti-social-behaviour",
    "location_type": "Force",
    "location": {
      "latitude": "51.901863",
      "street": {
        "id": 708063,
        "name": "On or near Sussex Avenue"
      },
      "longitude": "-2.100502"
    },
    "context": "",
    "outcome_status": null,
    "persistent_id": "",
    "id": 86953317,
    "location_subtype": "",
    "month": "2020-09"
  },
  {
    "category": "anti-social-behaviour",
    "location_type": "Force",
    "location": {
      "latitude": "51.897667",
      "street": {
        "id": 708113,
        "name": "On or near Monks Croft"
      },
      "longitude": "-2.117162"
    },
    "context": "",
    "outcome_status": null,
    "persistent_id": "",
    "id": 86953312,
    "location_subtype": "",
    "month": "2020-09"
  },
  {
    "category": "anti-social-behaviour",
    "location_type": "Force",
    "location": {
      "latitude": "51.904871",
      "street": {
        "id": 708603,
        "name": "On or near High Street"
      },
      "longitude": "-2.083444"
    },
    "context": "",
    "outcome_status": null,
    "persistent_id": "",
    "id": 86953306,
    "location_subtype": "",
    "month": "2020-09"
  },
  {
    "category": "anti-social-behaviour",
    "location_type": "Force",
    "location": {
      "latitude": "51.913073",
      "street": {
        "id": 708568,
        "name": "On or near Swindon Road"
      },
      "longitude": "-2.091717"
    },
    "context": "",
    "outcome_status": null,
    "persistent_id": "",
    "id": 86953848,
    "location_subtype": "",
    "month": "2020-09"
  },
  {
    "category": "anti-social-behaviour",
    "location_type": "Force",
    "location": {
      "latitude": "51.898325",
      "street": {
        "id": 708125,
        "name": "On or near Hillfield"
      },
      "longitude": "-2.106264"
    },
    "context": "",
    "outcome_status": null,
    "persistent_id": "",
    "id": 86953296,
    "location_subtype": "",
    "month": "2020-09"
  },
  {
    "category": "anti-social-behaviour",
    "location_type": "Force",
    "location": {
      "latitude": "51.903281",
      "street": {
        "id": 707909,
        "name": "On or near Devonshire Street"
      },
      "longitude": "-2.081508"
    },
    "context": "",
    "outcome_status": null,
    "persistent_id": "",
    "id": 86953283,
    "location_subtype": "",
    "month": "2020-09"
  },
  {
    "category": "anti-social-behaviour",
    "location_type": "Force",
    "location": {
      "latitude": "51.911330",
      "street": {
        "id": 708442,
        "name": "On or near Providence Park"
      },
      "longitude": "-2.101788"
    },
    "context": "",
    "outcome_status": null,
    "persistent_id": "",
    "id": 86953279,
    "location_subtype": "",
    "month": "2020-09"
  },
  {
    "category": "anti-social-behaviour",
    "location_type": "Force",
    "location": {
      "latitude": "51.904050",
      "street": {
        "id": 708624,
        "name": "On or near Brookbank Close"
      },
      "longitude": "-2.086946"
    },
    "context": "",
    "outcome_status": null,
    "persistent_id": "",
    "id": 86953272,
    "location_subtype": "",
    "month": "2020-09"
  },
  {
    "category": "anti-social-behaviour",
    "location_type": "Force",
    "location": {
      "latitude": "51.901805",
      "street": {
        "id": 707902,
        "name": "On or near Jessop Avenue"
      },
      "longitude": "-2.083409"
    },
    "context": "",
    "outcome_status": null,
    "persistent_id": "",
    "id": 86953241,
    "location_subtype": "",
    "month": "2020-09"
  },
  {
    "category": "anti-social-behaviour",
    "location_type": "Force",
    "location": {
      "latitude": "51.906587",
      "street": {
        "id": 708620,
        "name": "On or near Charles Street"
      },
      "longitude": "-2.085293"
    },
    "context": "",
    "outcome_status": null,
    "persistent_id": "",
    "id": 86953621,
    "location_subtype": "",
    "month": "2020-09"
  },
  {
    "category": "anti-social-behaviour",
    "location_type": "Force",
    "location": {
      "latitude": "51.905950",
      "street": {
        "id": 708464,
        "name": "On or near Lucinia Mews"
      },
      "longitude": "-2.105017"
    },
    "context": "",
    "outcome_status": null,
    "persistent_id": "",
    "id": 86953591,
    "location_subtype": "",
    "month": "2020-09"
  },
  {
    "category": "anti-social-behaviour",
    "location_type": "Force",
    "location": {
      "latitude": "51.917412",
      "street": {
        "id": 708925,
        "name": "On or near Huntscote Road"
      },
      "longitude": "-2.096640"
    },
    "context": "",
    "outcome_status": null,
    "persistent_id": "",
    "id": 86953582,
    "location_subtype": "",
    "month": "2020-09"
  },
  {
    "category": "anti-social-behaviour",
    "location_type": "Force",
    "location": {
      "latitude": "51.911490",
      "street": {
        "id": 708433,
        "name": "On or near Welch Road"
      },
      "longitude": "-2.113142"
    },
    "context": "",
    "outcome_status": null,
    "persistent_id": "",
    "id": 86953624,
    "location_subtype": "",
    "month": "2020-09"
  },
  {
    "category": "anti-social-behaviour",
    "location_type": "Force",
    "location": {
      "latitude": "51.904050",
      "street": {
        "id": 708624,
        "name": "On or near Brookbank Close"
      },
      "longitude": "-2.086946"
    },
    "context": "",
    "outcome_status": null,
    "persistent_id": "",
    "id": 86953577,
    "location_subtype": "",
    "month": "2020-09"
  },
  {
    "category": "anti-social-behaviour",
    "location_type": "Force",
    "location": {
      "latitude": "51.906761",
      "street": {
        "id": 708441,
        "name": "On or near Quebec Drive"
      },
      "longitude": "-2.112650"
    },
    "context": "",
    "outcome_status": null,
    "persistent_id": "",
    "id": 86953127,
    "location_subtype": "",
    "month": "2020-09"
  },
  {
    "category": "anti-social-behaviour",
    "location_type": "Force",
    "location": {
      "latitude": "51.905536",
      "street": {
        "id": 708606,
        "name": "On or near Granville Street"
      },
      "longitude": "-2.082966"
    },
    "context": "",
    "outcome_status": null,
    "persistent_id": "",
    "id": 86953637,
    "location_subtype": "",
    "month": "2020-09"
  },
  {
    "category": "anti-social-behaviour",
    "location_type": "Force",
    "location": {
      "latitude": "51.914016",
      "street": {
        "id": 708407,
        "name": "On or near Grenadier Road"
      },
      "longitude": "-2.113904"
    },
    "context": "",
    "outcome_status": null,
    "persistent_id": "",
    "id": 86953114,
    "location_subtype": "",
    "month": "2020-09"
  },
  {
    "category": "anti-social-behaviour",
    "location_type": "Force",
    "location": {
      "latitude": "51.904999",
      "street": {
        "id": 708629,
        "name": "On or near Arle Avenue"
      },
      "longitude": "-2.091526"
    },
    "context": "",
    "outcome_status": null,
    "persistent_id": "",
    "id": 86953102,
    "location_subtype": "",
    "month": "2020-09"
  },
  {
    "category": "anti-social-behaviour",
    "location_type": "Force",
    "location": {
      "latitude": "51.915340",
      "street": {
        "id": 708508,
        "name": "On or near Stanwick Drive"
      },
      "longitude": "-2.090762"
    },
    "context": "",
    "outcome_status": null,
    "persistent_id": "",
    "id": 86953072,
    "location_subtype": "",
    "month": "2020-09"
  },
  {
    "category": "anti-social-behaviour",
    "location_type": "Force",
    "location": {
      "latitude": "51.903263",
      "street": {
        "id": 708073,
        "name": "On or near Laxton Road"
      },
      "longitude": "-2.113150"
    },
    "context": "",
    "outcome_status": null,
    "persistent_id": "",
    "id": 86953639,
    "location_subtype": "",
    "month": "2020-09"
  },
  {
    "category": "anti-social-behaviour",
    "location_type": "Force",
    "location": {
      "latitude": "51.915127",
      "street": {
        "id": 708506,
        "name": "On or near Windyridge Gardens"
      },
      "longitude": "-2.086400"
    },
    "context": "",
    "outcome_status": null,
    "persistent_id": "",
    "id": 86953079,
    "location_subtype": "",
    "month": "2020-09"
  },
  {
    "category": "anti-social-behaviour",
    "location_type": "Force",
    "location": {
      "latitude": "51.910204",
      "street": {
        "id": 708473,
        "name": "On or near Grevil Road"
      },
      "longitude": "-2.103195"
    },
    "context": "",
    "outcome_status": null,
    "persistent_id": "",
    "id": 86953643,
    "location_subtype": "",
    "month": "2020-09"
  },
  {
    "category": "anti-social-behaviour",
    "location_type": "Force",
    "location": {
      "latitude": "51.915054",
      "street": {
        "id": 708505,
        "name": "On or near Windyridge Road"
      },
      "longitude": "-2.088232"
    },
    "context": "",
    "outcome_status": null,
    "persistent_id": "",
    "id": 86953070,
    "location_subtype": "",
    "month": "2020-09"
  },
  {
    "category": "anti-social-behaviour",
    "location_type": "Force",
    "location": {
      "latitude": "51.898042",
      "street": {
        "id": 708221,
        "name": "On or near Sotherby Drive"
      },
      "longitude": "-2.120055"
    },
    "context": "",
    "outcome_status": null,
    "persistent_id": "",
    "id": 86953069,
    "location_subtype": "",
    "month": "2020-09"
  },
  {
    "category": "anti-social-behaviour",
    "location_type": "Force",
    "location": {
      "latitude": "51.902015",
      "street": {
        "id": 707896,
        "name": "On or near Queen's Retreat"
      },
      "longitude": "-2.090270"
    },
    "context": "",
    "outcome_status": null,
    "persistent_id": "",
    "id": 86953046,
    "location_subtype": "",
    "month": "2020-09"
  },
  {
    "category": "anti-social-behaviour",
    "location_type": "Force",
    "location": {
      "latitude": "51.905950",
      "street": {
        "id": 708464,
        "name": "On or near Lucinia Mews"
      },
      "longitude": "-2.105017"
    },
    "context": "",
    "outcome_status": null,
    "persistent_id": "",
    "id": 86953041,
    "location_subtype": "",
    "month": "2020-09"
  },
  {
    "category": "anti-social-behaviour",
    "location_type": "Force",
    "location": {
      "latitude": "51.902634",
      "street": {
        "id": 708079,
        "name": "On or near Edinburgh Place"
      },
      "longitude": "-2.113062"
    },
    "context": "",
    "outcome_status": null,
    "persistent_id": "",
    "id": 86953039,
    "location_subtype": "",
    "month": "2020-09"
  },
  {
    "category": "anti-social-behaviour",
    "location_type": "Force",
    "location": {
      "latitude": "51.902793",
      "street": {
        "id": 707907,
        "name": "On or near Great Western Road"
      },
      "longitude": "-2.084792"
    },
    "context": "",
    "outcome_status": null,
    "persistent_id": "",
    "id": 86953420,
    "location_subtype": "",
    "month": "2020-09"
  },
  {
    "category": "anti-social-behaviour",
    "location_type": "Force",
    "location": {
      "latitude": "51.898839",
      "street": {
        "id": 707922,
        "name": "On or near Parking Area"
      },
      "longitude": "-2.082270"
    },
    "context": "",
    "outcome_status": null,
    "persistent_id": "",
    "id": 86953419,
    "location_subtype": "",
    "month": "2020-09"
  },
  {
    "category": "anti-social-behaviour",
    "location_type": "Force",
    "location": {
      "latitude": "51.894015",
      "street": {
        "id": 708141,
        "name": "On or near Finstock Close"
      },
      "longitude": "-2.109654"
    },
    "context": "",
    "outcome_status": null,
    "persistent_id": "",
    "id": 86953426,
    "location_subtype": "",
    "month": "2020-09"
  },
  {
    "category": "anti-social-behaviour",
    "location_type": "Force",
    "location": {
      "latitude": "51.909528",
      "street": {
        "id": 708446,
        "name": "On or near Pennsylvania Avenue"
      },
      "longitude": "-2.105578"
    },
    "context": "",
    "outcome_status": null,
    "persistent_id": "",
    "id": 86953015,
    "location_subtype": "",
    "month": "2020-09"
  },
  {
    "category": "anti-social-behaviour",
    "location_type": "Force",
    "location": {
      "latitude": "51.896232",
      "street": {
        "id": 708151,
        "name": "On or near Campden Road"
      },
      "longitude": "-2.113409"
    },
    "context": "",
    "outcome_status": null,
    "persistent_id": "",
    "id": 86953383,
    "location_subtype": "",
    "month": "2020-09"
  },
  {
    "category": "anti-social-behaviour",
    "location_type": "Force",
    "location": {
      "latitude": "51.902015",
      "street": {
        "id": 707896,
        "name": "On or near Queen's Retreat"
      },
      "longitude": "-2.090270"
    },
    "context": "",
    "outcome_status": null,
    "persistent_id": "",
    "id": 86954285,
    "location_subtype": "",
    "month": "2020-09"
  },
  {
    "category": "anti-social-behaviour",
    "location_type": "Force",
    "location": {
      "latitude": "51.903343",
      "street": {
        "id": 707916,
        "name": "On or near Alstone Croft"
      },
      "longitude": "-2.094212"
    },
    "context": "",
    "outcome_status": null,
    "persistent_id": "",
    "id": 86953356,
    "location_subtype": "",
    "month": "2020-09"
  },
  {
    "category": "anti-social-behaviour",
    "location_type": "Force",
    "location": {
      "latitude": "51.906761",
      "street": {
        "id": 708441,
        "name": "On or near Quebec Drive"
      },
      "longitude": "-2.112650"
    },
    "context": "",
    "outcome_status": null,
    "persistent_id": "",
    "id": 86952997,
    "location_subtype": "",
    "month": "2020-09"
  },
  {
    "category": "anti-social-behaviour",
    "location_type": "Force",
    "location": {
      "latitude": "51.905451",
      "street": {
        "id": 708599,
        "name": "On or near Lower Mill Street"
      },
      "longitude": "-2.089027"
    },
    "context": "",
    "outcome_status": null,
    "persistent_id": "",
    "id": 86952996,
    "location_subtype": "",
    "month": "2020-09"
  },
  {
    "category": "anti-social-behaviour",
    "location_type": "Force",
    "location": {
      "latitude": "51.909528",
      "street": {
        "id": 708446,
        "name": "On or near Pennsylvania Avenue"
      },
      "longitude": "-2.105578"
    },
    "context": "",
    "outcome_status": null,
    "persistent_id": "",
    "id": 86952984,
    "location_subtype": "",
    "month": "2020-09"
  },
  {
    "category": "anti-social-behaviour",
    "location_type": "Force",
    "location": {
      "latitude": "51.900840",
      "street": {
        "id": 708088,
        "name": "On or near Sports/recreation Area"
      },
      "longitude": "-2.109118"
    },
    "context": "",
    "outcome_status": null,
    "persistent_id": "",
    "id": 86953646,
    "location_subtype": "",
    "month": "2020-09"
  },
  {
    "category": "anti-social-behaviour",
    "location_type": "Force",
    "location": {
      "latitude": "51.907796",
      "street": {
        "id": 708460,
        "name": "On or near Montreal Drive"
      },
      "longitude": "-2.111330"
    },
    "context": "",
    "outcome_status": null,
    "persistent_id": "",
    "id": 86952981,
    "location_subtype": "",
    "month": "2020-09"
  },
  {
    "category": "anti-social-behaviour",
    "location_type": "Force",
    "location": {
      "latitude": "51.900216",
      "street": {
        "id": 708106,
        "name": "On or near Shakespeare Road"
      },
      "longitude": "-2.112154"
    },
    "context": "",
    "outcome_status": null,
    "persistent_id": "",
    "id": 86952965,
    "location_subtype": "",
    "month": "2020-09"
  },
  {
    "category": "anti-social-behaviour",
    "location_type": "Force",
    "location": {
      "latitude": "51.908922",
      "street": {
        "id": 708485,
        "name": "On or near Brooklyn Gardens"
      },
      "longitude": "-2.099805"
    },
    "context": "",
    "outcome_status": null,
    "persistent_id": "",
    "id": 86952964,
    "location_subtype": "",
    "month": "2020-09"
  },
  {
    "category": "anti-social-behaviour",
    "location_type": "Force",
    "location": {
      "latitude": "51.905711",
      "street": {
        "id": 708489,
        "name": "On or near Blenheim Square"
      },
      "longitude": "-2.110642"
    },
    "context": "",
    "outcome_status": null,
    "persistent_id": "",
    "id": 86953213,
    "location_subtype": "",
    "month": "2020-09"
  },
  {
    "category": "anti-social-behaviour",
    "location_type": "Force",
    "location": {
      "latitude": "51.908600",
      "street": {
        "id": 708570,
        "name": "On or near Swindon Close"
      },
      "longitude": "-2.086140"
    },
    "context": "",
    "outcome_status": null,
    "persistent_id": "",
    "id": 86953650,
    "location_subtype": "",
    "month": "2020-09"
  },
  {
    "category": "anti-social-behaviour",
    "location_type": "Force",
    "location": {
      "latitude": "51.901599",
      "street": {
        "id": 707897,
        "name": "On or near Pates Avenue"
      },
      "longitude": "-2.094223"
    },
    "context": "",
    "outcome_status": null,
    "persistent_id": "",
    "id": 86953202,
    "location_subtype": "",
    "month": "2020-09"
  },
  {
    "category": "anti-social-behaviour",
    "location_type": "Force",
    "location": {
      "latitude": "51.904263",
      "street": {
        "id": 708533,
        "name": "On or near New Rutland Court"
      },
      "longitude": "-2.078167"
    },
    "context": "",
    "outcome_status": null,
    "persistent_id": "",
    "id": 86953201,
    "location_subtype": "",
    "month": "2020-09"
  },
  {
    "category": "anti-social-behaviour",
    "location_type": "Force",
    "location": {
      "latitude": "51.910419",
      "street": {
        "id": 708564,
        "name": "On or near Tewkesbury Road"
      },
      "longitude": "-2.093630"
    },
    "context": "",
    "outcome_status": null,
    "persistent_id": "",
    "id": 86953190,
    "location_subtype": "",
    "month": "2020-09"
  },
  {
    "category": "anti-social-behaviour",
    "location_type": "Force",
    "location": {
      "latitude": "51.908983",
      "street": {
        "id": 708559,
        "name": "On or near Waterloo Street"
      },
      "longitude": "-2.090633"
    },
    "context": "",
    "outcome_status": null,
    "persistent_id": "",
    "id": 86953185,
    "location_subtype": "",
    "month": "2020-09"
  },
  {
    "category": "anti-social-behaviour",
    "location_type": "Force",
    "location": {
      "latitude": "51.915955",
      "street": {
        "id": 708405,
        "name": "On or near Hayden Road"
      },
      "longitude": "-2.106698"
    },
    "context": "",
    "outcome_status": null,
    "persistent_id": "",
    "id": 86953183,
    "location_subtype": "",
    "month": "2020-09"
  },
  {
    "category": "anti-social-behaviour",
    "location_type": "Force",
    "location": {
      "latitude": "51.902006",
      "street": {
        "id": 708085,
        "name": "On or near Britten Place"
      },
      "longitude": "-2.111505"
    },
    "context": "",
    "outcome_status": null,
    "persistent_id": "",
    "id": 86953162,
    "location_subtype": "",
    "month": "2020-09"
  },
  {
    "category": "anti-social-behaviour",
    "location_type": "Force",
    "location": {
      "latitude": "51.904497",
      "street": {
        "id": 708456,
        "name": "On or near Newton Road"
      },
      "longitude": "-2.111700"
    },
    "context": "",
    "outcome_status": null,
    "persistent_id": "",
    "id": 86953158,
    "location_subtype": "",
    "month": "2020-09"
  },
  {
    "category": "anti-social-behaviour",
    "location_type": "Force",
    "location": {
      "latitude": "51.898325",
      "street": {
        "id": 708125,
        "name": "On or near Hillfield"
      },
      "longitude": "-2.106264"
    },
    "context": "",
    "outcome_status": null,
    "persistent_id": "",
    "id": 86954609,
    "location_subtype": "",
    "month": "2020-09"
  },
  {
    "category": "anti-social-behaviour",
    "location_type": "Force",
    "location": {
      "latitude": "51.898042",
      "street": {
        "id": 708221,
        "name": "On or near Sotherby Drive"
      },
      "longitude": "-2.120055"
    },
    "context": "",
    "outcome_status": null,
    "persistent_id": "",
    "id": 86954521,
    "location_subtype": "",
    "month": "2020-09"
  },
  {
    "category": "anti-social-behaviour",
    "location_type": "Force",
    "location": {
      "latitude": "51.903666",
      "street": {
        "id": 708551,
        "name": "On or near Burton Street"
      },
      "longitude": "-2.083195"
    },
    "context": "",
    "outcome_status": null,
    "persistent_id": "",
    "id": 86954596,
    "location_subtype": "",
    "month": "2020-09"
  },
  {
    "category": "anti-social-behaviour",
    "location_type": "Force",
    "location": {
      "latitude": "51.896913",
      "street": {
        "id": 700956,
        "name": "On or near Griffiths Avenue"
      },
      "longitude": "-2.106173"
    },
    "context": "",
    "outcome_status": null,
    "persistent_id": "",
    "id": 86954922,
    "location_subtype": "",
    "month": "2020-09"
  },
  {
    "category": "anti-social-behaviour",
    "location_type": "Force",
    "location": {
      "latitude": "51.899151",
      "street": {
        "id": 708162,
        "name": "On or near Stow Court"
      },
      "longitude": "-2.097473"
    },
    "context": "",
    "outcome_status": null,
    "persistent_id": "",
    "id": 86953656,
    "location_subtype": "",
    "month": "2020-09"
  },
  {
    "category": "anti-social-behaviour",
    "location_type": "Force",
    "location": {
      "latitude": "51.896913",
      "street": {
        "id": 700956,
        "name": "On or near Griffiths Avenue"
      },
      "longitude": "-2.106173"
    },
    "context": "",
    "outcome_status": null,
    "persistent_id": "",
    "id": 86954913,
    "location_subtype": "",
    "month": "2020-09"
  },
  {
    "category": "anti-social-behaviour",
    "location_type": "Force",
    "location": {
      "latitude": "51.900098",
      "street": {
        "id": 707921,
        "name": "On or near Parking Area"
      },
      "longitude": "-2.081575"
    },
    "context": "",
    "outcome_status": null,
    "persistent_id": "",
    "id": 86954499,
    "location_subtype": "",
    "month": "2020-09"
  },
  {
    "category": "anti-social-behaviour",
    "location_type": "Force",
    "location": {
      "latitude": "51.892072",
      "street": {
        "id": 707983,
        "name": "On or near Inkerman Lane"
      },
      "longitude": "-2.089582"
    },
    "context": "",
    "outcome_status": null,
    "persistent_id": "",
    "id": 86954912,
    "location_subtype": "",
    "month": "2020-09"
  },
  {
    "category": "anti-social-behaviour",
    "location_type": "Force",
    "location": {
      "latitude": "51.911194",
      "street": {
        "id": 708465,
        "name": "On or near Lipson Road"
      },
      "longitude": "-2.112240"
    },
    "context": "",
    "outcome_status": null,
    "persistent_id": "",
    "id": 86954899,
    "location_subtype": "",
    "month": "2020-09"
  },
  {
    "category": "anti-social-behaviour",
    "location_type": "Force",
    "location": {
      "latitude": "51.908983",
      "street": {
        "id": 708559,
        "name": "On or near Waterloo Street"
      },
      "longitude": "-2.090633"
    },
    "context": "",
    "outcome_status": null,
    "persistent_id": "",
    "id": 86953152,
    "location_subtype": "",
    "month": "2020-09"
  },
  {
    "category": "anti-social-behaviour",
    "location_type": "Force",
    "location": {
      "latitude": "51.902001",
      "street": {
        "id": 708090,
        "name": "On or near Hospital"
      },
      "longitude": "-2.116984"
    },
    "context": "",
    "outcome_status": null,
    "persistent_id": "",
    "id": 86954897,
    "location_subtype": "",
    "month": "2020-09"
  },
  {
    "category": "anti-social-behaviour",
    "location_type": "Force",
    "location": {
      "latitude": "51.898839",
      "street": {
        "id": 707922,
        "name": "On or near Parking Area"
      },
      "longitude": "-2.082270"
    },
    "context": "",
    "outcome_status": null,
    "persistent_id": "",
    "id": 86953145,
    "location_subtype": "",
    "month": "2020-09"
  },
  {
    "category": "anti-social-behaviour",
    "location_type": "Force",
    "location": {
      "latitude": "51.910295",
      "street": {
        "id": 708447,
        "name": "On or near Pennington Court"
      },
      "longitude": "-2.112659"
    },
    "context": "",
    "outcome_status": null,
    "persistent_id": "",
    "id": 86954862,
    "location_subtype": "",
    "month": "2020-09"
  },
  {
    "category": "anti-social-behaviour",
    "location_type": "Force",
    "location": {
      "latitude": "51.901805",
      "street": {
        "id": 707902,
        "name": "On or near Jessop Avenue"
      },
      "longitude": "-2.083409"
    },
    "context": "",
    "outcome_status": null,
    "persistent_id": "",
    "id": 86954853,
    "location_subtype": "",
    "month": "2020-09"
  },
  {
    "category": "anti-social-behaviour",
    "location_type": "Force",
    "location": {
      "latitude": "51.893286",
      "street": {
        "id": 708144,
        "name": "On or near Draycot Road"
      },
      "longitude": "-2.110902"
    },
    "context": "",
    "outcome_status": null,
    "persistent_id": "",
    "id": 86954842,
    "location_subtype": "",
    "month": "2020-09"
  },
  {
    "category": "anti-social-behaviour",
    "location_type": "Force",
    "location": {
      "latitude": "51.907315",
      "street": {
        "id": 708453,
        "name": "On or near Oldbury Road"
      },
      "longitude": "-2.116170"
    },
    "context": "",
    "outcome_status": null,
    "persistent_id": "",
    "id": 86954832,
    "location_subtype": "",
    "month": "2020-09"
  },
  {
    "category": "anti-social-behaviour",
    "location_type": "Force",
    "location": {
      "latitude": "51.909528",
      "street": {
        "id": 708446,
        "name": "On or near Pennsylvania Avenue"
      },
      "longitude": "-2.105578"
    },
    "context": "",
    "outcome_status": null,
    "persistent_id": "",
    "id": 86954804,
    "location_subtype": "",
    "month": "2020-09"
  },
  {
    "category": "anti-social-behaviour",
    "location_type": "Force",
    "location": {
      "latitude": "51.903813",
      "street": {
        "id": 708481,
        "name": "On or near Clevedon Square"
      },
      "longitude": "-2.101698"
    },
    "context": "",
    "outcome_status": null,
    "persistent_id": "",
    "id": 86954838,
    "location_subtype": "",
    "month": "2020-09"
  },
  {
    "category": "anti-social-behaviour",
    "location_type": "Force",
    "location": {
      "latitude": "51.913594",
      "street": {
        "id": 708445,
        "name": "On or near Persimmon Gardens"
      },
      "longitude": "-2.112609"
    },
    "context": "",
    "outcome_status": null,
    "persistent_id": "",
    "id": 86954496,
    "location_subtype": "",
    "month": "2020-09"
  },
  {
    "category": "anti-social-behaviour",
    "location_type": "Force",
    "location": {
      "latitude": "51.899151",
      "street": {
        "id": 708162,
        "name": "On or near Stow Court"
      },
      "longitude": "-2.097473"
    },
    "context": "",
    "outcome_status": null,
    "persistent_id": "",
    "id": 86954802,
    "location_subtype": "",
    "month": "2020-09"
  },
  {
    "category": "anti-social-behaviour",
    "location_type": "Force",
    "location": {
      "latitude": "51.904414",
      "street": {
        "id": 708600,
        "name": "On or near King Street"
      },
      "longitude": "-2.080289"
    },
    "context": "",
    "outcome_status": null,
    "persistent_id": "",
    "id": 86954787,
    "location_subtype": "",
    "month": "2020-09"
  },
  {
    "category": "anti-social-behaviour",
    "location_type": "Force",
    "location": {
      "latitude": "51.889925",
      "street": {
        "id": 707141,
        "name": "On or near Warden Hill Road"
      },
      "longitude": "-2.099240"
    },
    "context": "",
    "outcome_status": null,
    "persistent_id": "",
    "id": 86954778,
    "location_subtype": "",
    "month": "2020-09"
  },
  {
    "category": "anti-social-behaviour",
    "location_type": "Force",
    "location": {
      "latitude": "51.893286",
      "street": {
        "id": 708144,
        "name": "On or near Draycot Road"
      },
      "longitude": "-2.110902"
    },
    "context": "",
    "outcome_status": null,
    "persistent_id": "",
    "id": 86954770,
    "location_subtype": "",
    "month": "2020-09"
  },
  {
    "category": "anti-social-behaviour",
    "location_type": "Force",
    "location": {
      "latitude": "51.908518",
      "street": {
        "id": 708583,
        "name": "On or near Queen Street"
      },
      "longitude": "-2.087303"
    },
    "context": "",
    "outcome_status": null,
    "persistent_id": "",
    "id": 86954766,
    "location_subtype": "",
    "month": "2020-09"
  },
  {
    "category": "anti-social-behaviour",
    "location_type": "Force",
    "location": {
      "latitude": "51.912432",
      "street": {
        "id": 708498,
        "name": "On or near Sports/recreation Area"
      },
      "longitude": "-2.115063"
    },
    "context": "",
    "outcome_status": null,
    "persistent_id": "",
    "id": 86953663,
    "location_subtype": "",
    "month": "2020-09"
  },
  {
    "category": "anti-social-behaviour",
    "location_type": "Force",
    "location": {
      "latitude": "51.914793",
      "street": {
        "id": 708419,
        "name": "On or near Shopping Area"
      },
      "longitude": "-2.099557"
    },
    "context": "",
    "outcome_status": null,
    "persistent_id": "",
    "id": 86954160,
    "location_subtype": "",
    "month": "2020-09"
  },
  {
    "category": "anti-social-behaviour",
    "location_type": "Force",
    "location": {
      "latitude": "51.894684",
      "street": {
        "id": 708161,
        "name": "On or near Petrol Station"
      },
      "longitude": "-2.105383"
    },
    "context": "",
    "outcome_status": null,
    "persistent_id": "",
    "id": 86954753,
    "location_subtype": "",
    "month": "2020-09"
  },
  {
    "category": "anti-social-behaviour",
    "location_type": "Force",
    "location": {
      "latitude": "51.900098",
      "street": {
        "id": 707921,
        "name": "On or near Parking Area"
      },
      "longitude": "-2.081575"
    },
    "context": "",
    "outcome_status": null,
    "persistent_id": "",
    "id": 86954301,
    "location_subtype": "",
    "month": "2020-09"
  },
  {
    "category": "anti-social-behaviour",
    "location_type": "Force",
    "location": {
      "latitude": "51.910295",
      "street": {
        "id": 708447,
        "name": "On or near Pennington Court"
      },
      "longitude": "-2.112659"
    },
    "context": "",
    "outcome_status": null,
    "persistent_id": "",
    "id": 86954299,
    "location_subtype": "",
    "month": "2020-09"
  },
  {
    "category": "anti-social-behaviour",
    "location_type": "Force",
    "location": {
      "latitude": "51.905451",
      "street": {
        "id": 708599,
        "name": "On or near Lower Mill Street"
      },
      "longitude": "-2.089027"
    },
    "context": "",
    "outcome_status": null,
    "persistent_id": "",
    "id": 86953903,
    "location_subtype": "",
    "month": "2020-09"
  },
  {
    "category": "anti-social-behaviour",
    "location_type": "Force",
    "location": {
      "latitude": "51.905711",
      "street": {
        "id": 708489,
        "name": "On or near Blenheim Square"
      },
      "longitude": "-2.110642"
    },
    "context": "",
    "outcome_status": null,
    "persistent_id": "",
    "id": 86953509,
    "location_subtype": "",
    "month": "2020-09"
  },
  {
    "category": "anti-social-behaviour",
    "location_type": "Force",
    "location": {
      "latitude": "51.915616",
      "street": {
        "id": 708401,
        "name": "On or near Patterdale Close"
      },
      "longitude": "-2.104545"
    },
    "context": "",
    "outcome_status": null,
    "persistent_id": "",
    "id": 86953505,
    "location_subtype": "",
    "month": "2020-09"
  },
  {
    "category": "anti-social-behaviour",
    "location_type": "Force",
    "location": {
      "latitude": "51.904793",
      "street": {
        "id": 708567,
        "name": "On or near Swindon Road"
      },
      "longitude": "-2.078996"
    },
    "context": "",
    "outcome_status": null,
    "persistent_id": "",
    "id": 86953494,
    "location_subtype": "",
    "month": "2020-09"
  },
  {
    "category": "anti-social-behaviour",
    "location_type": "Force",
    "location": {
      "latitude": "51.901599",
      "street": {
        "id": 707897,
        "name": "On or near Pates Avenue"
      },
      "longitude": "-2.094223"
    },
    "context": "",
    "outcome_status": null,
    "persistent_id": "",
    "id": 86953491,
    "location_subtype": "",
    "month": "2020-09"
  },
  {
    "category": "anti-social-behaviour",
    "location_type": "Force",
    "location": {
      "latitude": "51.906967",
      "street": {
        "id": 708619,
        "name": "On or near Clarke Way"
      },
      "longitude": "-2.080599"
    },
    "context": "",
    "outcome_status": null,
    "persistent_id": "",
    "id": 86954089,
    "location_subtype": "",
    "month": "2020-09"
  },
  {
    "category": "anti-social-behaviour",
    "location_type": "Force",
    "location": {
      "latitude": "51.909356",
      "street": {
        "id": 708482,
        "name": "On or near Brown Close"
      },
      "longitude": "-2.116277"
    },
    "context": "",
    "outcome_status": null,
    "persistent_id": "",
    "id": 86954735,
    "location_subtype": "",
    "month": "2020-09"
  },
  {
    "category": "anti-social-behaviour",
    "location_type": "Force",
    "location": {
      "latitude": "51.905540",
      "street": {
        "id": 708361,
        "name": "On or near Beale Road"
      },
      "longitude": "-2.120438"
    },
    "context": "",
    "outcome_status": null,
    "persistent_id": "",
    "id": 86954724,
    "location_subtype": "",
    "month": "2020-09"
  },
  {
    "category": "anti-social-behaviour",
    "location_type": "Force",
    "location": {
      "latitude": "51.902959",
      "street": {
        "id": 707913,
        "name": "On or near Ambrose Street"
      },
      "longitude": "-2.079124"
    },
    "context": "",
    "outcome_status": null,
    "persistent_id": "",
    "id": 86954489,
    "location_subtype": "",
    "month": "2020-09"
  },
  {
    "category": "anti-social-behaviour",
    "location_type": "Force",
    "location": {
      "latitude": "51.912473",
      "street": {
        "id": 708354,
        "name": "On or near Hazlitt Croft"
      },
      "longitude": "-2.119454"
    },
    "context": "",
    "outcome_status": null,
    "persistent_id": "",
    "id": 86953665,
    "location_subtype": "",
    "month": "2020-09"
  },
  {
    "category": "anti-social-behaviour",
    "location_type": "Force",
    "location": {
      "latitude": "51.905540",
      "street": {
        "id": 708361,
        "name": "On or near Beale Road"
      },
      "longitude": "-2.120438"
    },
    "context": "",
    "outcome_status": null,
    "persistent_id": "",
    "id": 86954723,
    "location_subtype": "",
    "month": "2020-09"
  },
  {
    "category": "anti-social-behaviour",
    "location_type": "Force",
    "location": {
      "latitude": "51.894985",
      "street": {
        "id": 707981,
        "name": "On or near Lansdown Parade"
      },
      "longitude": "-2.090212"
    },
    "context": "",
    "outcome_status": null,
    "persistent_id": "",
    "id": 86954711,
    "location_subtype": "",
    "month": "2020-09"
  },
  {
    "category": "anti-social-behaviour",
    "location_type": "Force",
    "location": {
      "latitude": "51.897014",
      "street": {
        "id": 707990,
        "name": "On or near Fauconberg Road"
      },
      "longitude": "-2.081758"
    },
    "context": "",
    "outcome_status": null,
    "persistent_id": "",
    "id": 86954708,
    "location_subtype": "",
    "month": "2020-09"
  },
  {
    "category": "anti-social-behaviour",
    "location_type": "Force",
    "location": {
      "latitude": "51.911782",
      "street": {
        "id": 708421,
        "name": "On or near Brook Road"
      },
      "longitude": "-2.098111"
    },
    "context": "",
    "outcome_status": null,
    "persistent_id": "",
    "id": 86954706,
    "location_subtype": "",
    "month": "2020-09"
  },
  {
    "category": "anti-social-behaviour",
    "location_type": "Force",
    "location": {
      "latitude": "51.902400",
      "street": {
        "id": 708084,
        "name": "On or near Buckingham Avenue"
      },
      "longitude": "-2.103265"
    },
    "context": "",
    "outcome_status": null,
    "persistent_id": "",
    "id": 86954702,
    "location_subtype": "",
    "month": "2020-09"
  },
  {
    "category": "anti-social-behaviour",
    "location_type": "Force",
    "location": {
      "latitude": "51.907849",
      "street": {
        "id": 708467,
        "name": "On or near Lechmere Road"
      },
      "longitude": "-2.113118"
    },
    "context": "",
    "outcome_status": null,
    "persistent_id": "",
    "id": 86954699,
    "location_subtype": "",
    "month": "2020-09"
  },
  {
    "category": "anti-social-behaviour",
    "location_type": "Force",
    "location": {
      "latitude": "51.911145",
      "street": {
        "id": 708470,
        "name": "On or near Kingsmead Avenue"
      },
      "longitude": "-2.107253"
    },
    "context": "",
    "outcome_status": null,
    "persistent_id": "",
    "id": 86954063,
    "location_subtype": "",
    "month": "2020-09"
  },
  {
    "category": "anti-social-behaviour",
    "location_type": "Force",
    "location": {
      "latitude": "51.907315",
      "street": {
        "id": 708453,
        "name": "On or near Oldbury Road"
      },
      "longitude": "-2.116170"
    },
    "context": "",
    "outcome_status": null,
    "persistent_id": "",
    "id": 86954592,
    "location_subtype": "",
    "month": "2020-09"
  },
  {
    "category": "anti-social-behaviour",
    "location_type": "Force",
    "location": {
      "latitude": "51.906710",
      "street": {
        "id": 708355,
        "name": "On or near Graham Place"
      },
      "longitude": "-2.119482"
    },
    "context": "",
    "outcome_status": null,
    "persistent_id": "",
    "id": 86954574,
    "location_subtype": "",
    "month": "2020-09"
  },
  {
    "category": "anti-social-behaviour",
    "location_type": "Force",
    "location": {
      "latitude": "51.906046",
      "street": {
        "id": 708639,
        "name": "On or near Supermarket"
      },
      "longitude": "-2.086804"
    },
    "context": "",
    "outcome_status": null,
    "persistent_id": "",
    "id": 86954571,
    "location_subtype": "",
    "month": "2020-09"
  },
  {
    "category": "anti-social-behaviour",
    "location_type": "Force",
    "location": {
      "latitude": "51.902166",
      "street": {
        "id": 707901,
        "name": "On or near Knapp Road"
      },
      "longitude": "-2.081346"
    },
    "context": "",
    "outcome_status": null,
    "persistent_id": "",
    "id": 86954568,
    "location_subtype": "",
    "month": "2020-09"
  },
  {
    "category": "anti-social-behaviour",
    "location_type": "Force",
    "location": {
      "latitude": "51.903595",
      "street": {
        "id": 708431,
        "name": "On or near Anapa Mews"
      },
      "longitude": "-2.114270"
    },
    "context": "",
    "outcome_status": null,
    "persistent_id": "",
    "id": 86953711,
    "location_subtype": "",
    "month": "2020-09"
  },
  {
    "category": "anti-social-behaviour",
    "location_type": "Force",
    "location": {
      "latitude": "51.908944",
      "street": {
        "id": 708466,
        "name": "On or near Lee Close"
      },
      "longitude": "-2.105329"
    },
    "context": "",
    "outcome_status": null,
    "persistent_id": "",
    "id": 86953716,
    "location_subtype": "",
    "month": "2020-09"
  },
  {
    "category": "anti-social-behaviour",
    "location_type": "Force",
    "location": {
      "latitude": "51.908922",
      "street": {
        "id": 708485,
        "name": "On or near Brooklyn Gardens"
      },
      "longitude": "-2.099805"
    },
    "context": "",
    "outcome_status": null,
    "persistent_id": "",
    "id": 86954476,
    "location_subtype": "",
    "month": "2020-09"
  },
  {
    "category": "anti-social-behaviour",
    "location_type": "Force",
    "location": {
      "latitude": "51.896913",
      "street": {
        "id": 700956,
        "name": "On or near Griffiths Avenue"
      },
      "longitude": "-2.106173"
    },
    "context": "",
    "outcome_status": null,
    "persistent_id": "",
    "id": 86954468,
    "location_subtype": "",
    "month": "2020-09"
  },
  {
    "category": "anti-social-behaviour",
    "location_type": "Force",
    "location": {
      "latitude": "51.903595",
      "street": {
        "id": 708431,
        "name": "On or near Anapa Mews"
      },
      "longitude": "-2.114270"
    },
    "context": "",
    "outcome_status": null,
    "persistent_id": "",
    "id": 86953717,
    "location_subtype": "",
    "month": "2020-09"
  },
  {
    "category": "anti-social-behaviour",
    "location_type": "Force",
    "location": {
      "latitude": "51.907308",
      "street": {
        "id": 708622,
        "name": "On or near Carlton Place"
      },
      "longitude": "-2.082867"
    },
    "context": "",
    "outcome_status": null,
    "persistent_id": "",
    "id": 86954441,
    "location_subtype": "",
    "month": "2020-09"
  },
  {
    "category": "anti-social-behaviour",
    "location_type": "Force",
    "location": {
      "latitude": "51.914420",
      "street": {
        "id": 708411,
        "name": "On or near Carter Road"
      },
      "longitude": "-2.104339"
    },
    "context": "",
    "outcome_status": null,
    "persistent_id": "",
    "id": 86953730,
    "location_subtype": "",
    "month": "2020-09"
  },
  {
    "category": "anti-social-behaviour",
    "location_type": "Force",
    "location": {
      "latitude": "51.906710",
      "street": {
        "id": 708355,
        "name": "On or near Graham Place"
      },
      "longitude": "-2.119482"
    },
    "context": "",
    "outcome_status": null,
    "persistent_id": "",
    "id": 86954156,
    "location_subtype": "",
    "month": "2020-09"
  },
  {
    "category": "anti-social-behaviour",
    "location_type": "Force",
    "location": {
      "latitude": "51.902453",
      "street": {
        "id": 708179,
        "name": "On or near Peacock Close"
      },
      "longitude": "-2.123221"
    },
    "context": "",
    "outcome_status": null,
    "persistent_id": "",
    "id": 86954350,
    "location_subtype": "",
    "month": "2020-09"
  },
  {
    "category": "anti-social-behaviour",
    "location_type": "Force",
    "location": {
      "latitude": "51.896913",
      "street": {
        "id": 700956,
        "name": "On or near Griffiths Avenue"
      },
      "longitude": "-2.106173"
    },
    "context": "",
    "outcome_status": null,
    "persistent_id": "",
    "id": 86954110,
    "location_subtype": "",
    "month": "2020-09"
  },
  {
    "category": "anti-social-behaviour",
    "location_type": "Force",
    "location": {
      "latitude": "51.911663",
      "street": {
        "id": 708347,
        "name": "On or near Springbank Close"
      },
      "longitude": "-2.119655"
    },
    "context": "",
    "outcome_status": null,
    "persistent_id": "",
    "id": 86954077,
    "location_subtype": "",
    "month": "2020-09"
  },
  {
    "category": "anti-social-behaviour",
    "location_type": "Force",
    "location": {
      "latitude": "51.894878",
      "street": {
        "id": 708055,
        "name": "On or near Lansdown Crescent Lane"
      },
      "longitude": "-2.088236"
    },
    "context": "",
    "outcome_status": null,
    "persistent_id": "",
    "id": 86954056,
    "location_subtype": "",
    "month": "2020-09"
  },
  {
    "category": "anti-social-behaviour",
    "location_type": "Force",
    "location": {
      "latitude": "51.915340",
      "street": {
        "id": 708508,
        "name": "On or near Stanwick Drive"
      },
      "longitude": "-2.090762"
    },
    "context": "",
    "outcome_status": null,
    "persistent_id": "",
    "id": 86954013,
    "location_subtype": "",
    "month": "2020-09"
  },
  {
    "category": "anti-social-behaviour",
    "location_type": "Force",
    "location": {
      "latitude": "51.905711",
      "street": {
        "id": 708489,
        "name": "On or near Blenheim Square"
      },
      "longitude": "-2.110642"
    },
    "context": "",
    "outcome_status": null,
    "persistent_id": "",
    "id": 86953984,
    "location_subtype": "",
    "month": "2020-09"
  },
  {
    "category": "anti-social-behaviour",
    "location_type": "Force",
    "location": {
      "latitude": "51.903281",
      "street": {
        "id": 707909,
        "name": "On or near Devonshire Street"
      },
      "longitude": "-2.081508"
    },
    "context": "",
    "outcome_status": null,
    "persistent_id": "",
    "id": 86953976,
    "location_subtype": "",
    "month": "2020-09"
  },
  {
    "category": "anti-social-behaviour",
    "location_type": "Force",
    "location": {
      "latitude": "51.899151",
      "street": {
        "id": 708162,
        "name": "On or near Stow Court"
      },
      "longitude": "-2.097473"
    },
    "context": "",
    "outcome_status": null,
    "persistent_id": "",
    "id": 86953988,
    "location_subtype": "",
    "month": "2020-09"
  },
  {
    "category": "anti-social-behaviour",
    "location_type": "Force",
    "location": {
      "latitude": "51.905050",
      "street": {
        "id": 708602,
        "name": "On or near High Street"
      },
      "longitude": "-2.083837"
    },
    "context": "",
    "outcome_status": null,
    "persistent_id": "",
    "id": 86954033,
    "location_subtype": "",
    "month": "2020-09"
  },
  {
    "category": "anti-social-behaviour",
    "location_type": "Force",
    "location": {
      "latitude": "51.902634",
      "street": {
        "id": 708079,
        "name": "On or near Edinburgh Place"
      },
      "longitude": "-2.113062"
    },
    "context": "",
    "outcome_status": null,
    "persistent_id": "",
    "id": 86953527,
    "location_subtype": "",
    "month": "2020-09"
  },
  {
    "category": "anti-social-behaviour",
    "location_type": "Force",
    "location": {
      "latitude": "51.917275",
      "street": {
        "id": 708950,
        "name": "On or near Malmesbury Road"
      },
      "longitude": "-2.098632"
    },
    "context": "",
    "outcome_status": null,
    "persistent_id": "",
    "id": 86954532,
    "location_subtype": "",
    "month": "2020-09"
  },
  {
    "category": "anti-social-behaviour",
    "location_type": "Force",
    "location": {
      "latitude": "51.912832",
      "street": {
        "id": 708475,
        "name": "On or near Frank Brookes Road"
      },
      "longitude": "-2.101123"
    },
    "context": "",
    "outcome_status": null,
    "persistent_id": "",
    "id": 86953524,
    "location_subtype": "",
    "month": "2020-09"
  },
  {
    "category": "anti-social-behaviour",
    "location_type": "Force",
    "location": {
      "latitude": "51.904091",
      "street": {
        "id": 708576,
        "name": "On or near St Paul's Street South"
      },
      "longitude": "-2.079184"
    },
    "context": "",
    "outcome_status": null,
    "persistent_id": "",
    "id": 86954411,
    "location_subtype": "",
    "month": "2020-09"
  },
  {
    "category": "anti-social-behaviour",
    "location_type": "Force",
    "location": {
      "latitude": "51.907849",
      "street": {
        "id": 708467,
        "name": "On or near Lechmere Road"
      },
      "longitude": "-2.113118"
    },
    "context": "",
    "outcome_status": null,
    "persistent_id": "",
    "id": 86954394,
    "location_subtype": "",
    "month": "2020-09"
  },
  {
    "category": "anti-social-behaviour",
    "location_type": "Force",
    "location": {
      "latitude": "51.893416",
      "street": {
        "id": 707933,
        "name": "On or near Thorncliffe Drive"
      },
      "longitude": "-2.095135"
    },
    "context": "",
    "outcome_status": null,
    "persistent_id": "",
    "id": 86954390,
    "location_subtype": "",
    "month": "2020-09"
  },
  {
    "category": "anti-social-behaviour",
    "location_type": "Force",
    "location": {
      "latitude": "51.899733",
      "street": {
        "id": 708224,
        "name": "On or near Pinewood Drive"
      },
      "longitude": "-2.119187"
    },
    "context": "",
    "outcome_status": null,
    "persistent_id": "",
    "id": 86954692,
    "location_subtype": "",
    "month": "2020-09"
  },
  {
    "category": "bicycle-theft",
    "location_type": "Force",
    "location": {
      "latitude": "51.897378",
      "street": {
        "id": 708167,
        "name": "On or near Queen's Road"
      },
      "longitude": "-2.098850"
    },
    "context": "",
    "outcome_status": {
      "category": "Under investigation",
      "date": "2020-09"
    },
    "persistent_id": "ee504d2f95f9304fc7ce1a22bb8f755d8888507f2efab218fb67a414c44bb211",
    "id": 86951687,
    "location_subtype": "",
    "month": "2020-09"
  },
  {
    "category": "bicycle-theft",
    "location_type": "Force",
    "location": {
      "latitude": "51.905950",
      "street": {
        "id": 708464,
        "name": "On or near Lucinia Mews"
      },
      "longitude": "-2.105017"
    },
    "context": "",
    "outcome_status": {
      "category": "Under investigation",
      "date": "2020-09"
    },
    "persistent_id": "a53f52e87fd20d94e64be4fd840730248b2705215b53837a93e6b75ef1c41303",
    "id": 86951186,
    "location_subtype": "",
    "month": "2020-09"
  },
  {
    "category": "bicycle-theft",
    "location_type": "BTP",
    "location": {
      "latitude": "51.897300",
      "street": {
        "id": 1489246,
        "name": "Cheltenham Spa (station)"
      },
      "longitude": "-2.099820"
    },
    "context": "",
    "outcome_status": {
      "category": "Under investigation",
      "date": "2020-09"
    },
    "persistent_id": "",
    "id": 87207032,
    "location_subtype": "STATION",
    "month": "2020-09"
  },
  {
    "category": "bicycle-theft",
    "location_type": "Force",
    "location": {
      "latitude": "51.894908",
      "street": {
        "id": 707945,
        "name": "On or near Skillicorne Mews"
      },
      "longitude": "-2.095851"
    },
    "context": "",
    "outcome_status": {
      "category": "Investigation complete; no suspect identified",
      "date": "2020-09"
    },
    "persistent_id": "9c771d3abc84a58f9ba756567bc01929d3019949531358585e40d6b488a17e09",
    "id": 86949796,
    "location_subtype": "",
    "month": "2020-09"
  },
  {
    "category": "bicycle-theft",
    "location_type": "Force",
    "location": {
      "latitude": "51.905304",
      "street": {
        "id": 708488,
        "name": "On or near Braeburn Close"
      },
      "longitude": "-2.113243"
    },
    "context": "",
    "outcome_status": {
      "category": "Investigation complete; no suspect identified",
      "date": "2020-09"
    },
    "persistent_id": "2b7af207063e1b93b1eef54de8088fa62c4ba1048919831aeadfc0e9f07beaeb",
    "id": 86949605,
    "location_subtype": "",
    "month": "2020-09"
  },
  {
    "category": "bicycle-theft",
    "location_type": "Force",
    "location": {
      "latitude": "51.894985",
      "street": {
        "id": 707981,
        "name": "On or near Lansdown Parade"
      },
      "longitude": "-2.090212"
    },
    "context": "",
    "outcome_status": {
      "category": "Investigation complete; no suspect identified",
      "date": "2020-09"
    },
    "persistent_id": "e2fcd0b0236ad818cc87a7f816d7ee33beb03165fc38f45e9f7d7d78e5fe6d27",
    "id": 86949366,
    "location_subtype": "",
    "month": "2020-09"
  },
  {
    "category": "bicycle-theft",
    "location_type": "Force",
    "location": {
      "latitude": "51.915962",
      "street": {
        "id": 708513,
        "name": "On or near Medoc Close"
      },
      "longitude": "-2.088539"
    },
    "context": "",
    "outcome_status": {
      "category": "Investigation complete; no suspect identified",
      "date": "2020-09"
    },
    "persistent_id": "2562312125a183470db89a0e46f864bacf559e1b640552ad037d7653a6bd7b42",
    "id": 86950708,
    "location_subtype": "",
    "month": "2020-09"
  },
  {
    "category": "bicycle-theft",
    "location_type": "Force",
    "location": {
      "latitude": "51.905800",
      "street": {
        "id": 708532,
        "name": "On or near St Paul's Lane"
      },
      "longitude": "-2.078707"
    },
    "context": "",
    "outcome_status": {
      "category": "Investigation complete; no suspect identified",
      "date": "2020-09"
    },
    "persistent_id": "7d6c9c594bef635a5ae30dbba07efa64565d0b69880b2659df4fd1643fc302a6",
    "id": 86952422,
    "location_subtype": "",
    "month": "2020-09"
  },
  {
    "category": "bicycle-theft",
    "location_type": "Force",
    "location": {
      "latitude": "51.903321",
      "street": {
        "id": 707904,
        "name": "On or near Honeybourne Way"
      },
      "longitude": "-2.087220"
    },
    "context": "",
    "outcome_status": {
      "category": "Investigation complete; no suspect identified",
      "date": "2020-09"
    },
    "persistent_id": "61de83d35bf2341f92804747c9fd003c6405df801c343651a20b48e74e7c29c3",
    "id": 86951846,
    "location_subtype": "",
    "month": "2020-09"
  },
  {
    "category": "bicycle-theft",
    "location_type": "Force",
    "location": {
      "latitude": "51.902572",
      "street": {
        "id": 708078,
        "name": "On or near Edinburgh Place"
      },
      "longitude": "-2.112349"
    },
    "context": "",
    "outcome_status": {
      "category": "Investigation complete; no suspect identified",
      "date": "2020-09"
    },
    "persistent_id": "a74dd376a74ad103a4450c6f04f8540fcd409fd579da512fbd2909b100269daa",
    "id": 86951604,
    "location_subtype": "",
    "month": "2020-09"
  },
  {
    "category": "bicycle-theft",
    "location_type": "Force",
    "location": {
      "latitude": "51.904414",
      "street": {
        "id": 708600,
        "name": "On or near King Street"
      },
      "longitude": "-2.080289"
    },
    "context": "",
    "outcome_status": {
      "category": "Investigation complete; no suspect identified",
      "date": "2020-09"
    },
    "persistent_id": "f5fe0d2ee03eb5692981de89818aed7b5629e8620b5cbaf9456a53ad787c0665",
    "id": 86951424,
    "location_subtype": "",
    "month": "2020-09"
  },
  {
    "category": "bicycle-theft",
    "location_type": "Force",
    "location": {
      "latitude": "51.911412",
      "street": {
        "id": 708472,
        "name": "On or near Ismay Road"
      },
      "longitude": "-2.110438"
    },
    "context": "",
    "outcome_status": {
      "category": "Investigation complete; no suspect identified",
      "date": "2020-09"
    },
    "persistent_id": "059fb7fdcc0c67ea77c9f2826145365f5225bc8f391270053dfe0d639ed9fbf3",
    "id": 86951009,
    "location_subtype": "",
    "month": "2020-09"
  },
  {
    "category": "bicycle-theft",
    "location_type": "Force",
    "location": {
      "latitude": "51.908944",
      "street": {
        "id": 708466,
        "name": "On or near Lee Close"
      },
      "longitude": "-2.105329"
    },
    "context": "",
    "outcome_status": {
      "category": "Investigation complete; no suspect identified",
      "date": "2020-09"
    },
    "persistent_id": "3e316bbe5707b4955dd1f554bd64514d186158b859198bc0c0b78662dbf19585",
    "id": 86951195,
    "location_subtype": "",
    "month": "2020-09"
  },
  {
    "category": "bicycle-theft",
    "location_type": "Force",
    "location": {
      "latitude": "51.901613",
      "street": {
        "id": 707903,
        "name": "On or near Honeybourne Way"
      },
      "longitude": "-2.086999"
    },
    "context": "",
    "outcome_status": {
      "category": "Investigation complete; no suspect identified",
      "date": "2020-09"
    },
    "persistent_id": "563b42c53f533da3d745b6f50e836abb1c56ef921f4029d8820ea7424f4ab771",
    "id": 86951353,
    "location_subtype": "",
    "month": "2020-09"
  },
  {
    "category": "burglary",
    "location_type": "Force",
    "location": {
      "latitude": "51.912832",
      "street": {
        "id": 708475,
        "name": "On or near Frank Brookes Road"
      },
      "longitude": "-2.101123"
    },
    "context": "",
    "outcome_status": {
      "category": "Investigation complete; no suspect identified",
      "date": "2020-09"
    },
    "persistent_id": "de4bd18bbefc47d8f4a56874516a0866df861c26bf414c13e9a793ab1241839c",
    "id": 86950645,
    "location_subtype": "",
    "month": "2020-09"
  },
  {
    "category": "burglary",
    "location_type": "Force",
    "location": {
      "latitude": "51.898325",
      "street": {
        "id": 708125,
        "name": "On or near Hillfield"
      },
      "longitude": "-2.106264"
    },
    "context": "",
    "outcome_status": {
      "category": "Investigation complete; no suspect identified",
      "date": "2020-09"
    },
    "persistent_id": "f738aa81b35814073a14ad6717b12c6fdcd6294641a7a3734098d5e9ae28f6b5",
    "id": 86950691,
    "location_subtype": "",
    "month": "2020-09"
  },
  {
    "category": "burglary",
    "location_type": "Force",
    "location": {
      "latitude": "51.895040",
      "street": {
        "id": 708139,
        "name": "On or near Gloucester Road"
      },
      "longitude": "-2.110136"
    },
    "context": "",
    "outcome_status": {
      "category": "Under investigation",
      "date": "2020-09"
    },
    "persistent_id": "876c45392245d647be1a4be0bdfd38fd1eb435667e416737574abf992f1ffe88",
    "id": 86950526,
    "location_subtype": "",
    "month": "2020-09"
  },
  {
    "category": "burglary",
    "location_type": "Force",
    "location": {
      "latitude": "51.902580",
      "street": {
        "id": 707910,
        "name": "On or near Chapel Street"
      },
      "longitude": "-2.080112"
    },
    "context": "",
    "outcome_status": {
      "category": "Under investigation",
      "date": "2020-09"
    },
    "persistent_id": "c37a8945bbe46968edc8696aaa4f6b5f50045d787e5863c99718764be4fce13c",
    "id": 86949789,
    "location_subtype": "",
    "month": "2020-09"
  },
  {
    "category": "burglary",
    "location_type": "Force",
    "location": {
      "latitude": "51.914236",
      "street": {
        "id": 708335,
        "name": "On or near Pilgrove Close"
      },
      "longitude": "-2.118179"
    },
    "context": "",
    "outcome_status": {
      "category": "Under investigation",
      "date": "2020-09"
    },
    "persistent_id": "524cff7f413b48501ef021e4dceededbab9ac011cde19de5d2cef6576483fe54",
    "id": 86950730,
    "location_subtype": "",
    "month": "2020-09"
  },
  {
    "category": "burglary",
    "location_type": "Force",
    "location": {
      "latitude": "51.896826",
      "street": {
        "id": 708143,
        "name": "On or near Fairmount Road"
      },
      "longitude": "-2.103383"
    },
    "context": "",
    "outcome_status": {
      "category": "Investigation complete; no suspect identified",
      "date": "2020-09"
    },
    "persistent_id": "903a2853e61b798f71f5587d786cac8fe37c03946d5e5c0385e4b1170e7bbafa",
    "id": 86949820,
    "location_subtype": "",
    "month": "2020-09"
  },
  {
    "category": "burglary",
    "location_type": "Force",
    "location": {
      "latitude": "51.898325",
      "street": {
        "id": 708125,
        "name": "On or near Hillfield"
      },
      "longitude": "-2.106264"
    },
    "context": "",
    "outcome_status": {
      "category": "Investigation complete; no suspect identified",
      "date": "2020-09"
    },
    "persistent_id": "0c290ff64d084efbece0e85c159e509f51cdcd35aa6f86380fc4f68900ae8108",
    "id": 86951390,
    "location_subtype": "",
    "month": "2020-09"
  },
  {
    "category": "burglary",
    "location_type": "Force",
    "location": {
      "latitude": "51.892072",
      "street": {
        "id": 707983,
        "name": "On or near Inkerman Lane"
      },
      "longitude": "-2.089582"
    },
    "context": "",
    "outcome_status": {
      "category": "Under investigation",
      "date": "2020-09"
    },
    "persistent_id": "7bdea0478c318cf08b479c32592d5e31f76ecc67ece364c5893a9adb7cd45b67",
    "id": 86949791,
    "location_subtype": "",
    "month": "2020-09"
  },
  {
    "category": "burglary",
    "location_type": "Force",
    "location": {
      "latitude": "51.901376",
      "street": {
        "id": 708081,
        "name": "On or near Devon Avenue"
      },
      "longitude": "-2.102376"
    },
    "context": "",
    "outcome_status": {
      "category": "Under investigation",
      "date": "2020-09"
    },
    "persistent_id": "0182cbb60b70f69a2fd8b0b8f1ba86e6d898751c470369804a60f7812707f26c",
    "id": 86951073,
    "location_subtype": "",
    "month": "2020-09"
  },
  {
    "category": "burglary",
    "location_type": "Force",
    "location": {
      "latitude": "51.898325",
      "street": {
        "id": 708125,
        "name": "On or near Hillfield"
      },
      "longitude": "-2.106264"
    },
    "context": "",
    "outcome_status": {
      "category": "Under investigation",
      "date": "2020-09"
    },
    "persistent_id": "7417a80bcaba69c31ccd8fc8a675081439614011da0edca7c43f69259f77b4bf",
    "id": 86949801,
    "location_subtype": "",
    "month": "2020-09"
  },
  {
    "category": "burglary",
    "location_type": "Force",
    "location": {
      "latitude": "51.908509",
      "street": {
        "id": 708351,
        "name": "On or near Hester's Way Road"
      },
      "longitude": "-2.118179"
    },
    "context": "",
    "outcome_status": {
      "category": "Investigation complete; no suspect identified",
      "date": "2020-09"
    },
    "persistent_id": "aa890b296e601edd8a225db3a3f21e18ed77f9c8fa8c8ab180b32f16c03d1350",
    "id": 86949766,
    "location_subtype": "",
    "month": "2020-09"
  },
  {
    "category": "burglary",
    "location_type": "Force",
    "location": {
      "latitude": "51.901122",
      "street": {
        "id": 708072,
        "name": "On or near Norfolk Avenue"
      },
      "longitude": "-2.104657"
    },
    "context": "",
    "outcome_status": {
      "category": "Investigation complete; no suspect identified",
      "date": "2020-09"
    },
    "persistent_id": "38eef11d66cc0f69467047b1c6ccad858688999793a749350e8fdc3b8c0873bb",
    "id": 86951075,
    "location_subtype": "",
    "month": "2020-09"
  },
  {
    "category": "burglary",
    "location_type": "Force",
    "location": {
      "latitude": "51.903666",
      "street": {
        "id": 708551,
        "name": "On or near Burton Street"
      },
      "longitude": "-2.083195"
    },
    "context": "",
    "outcome_status": {
      "category": "Investigation complete; no suspect identified",
      "date": "2020-09"
    },
    "persistent_id": "bec90a8d6b8d7bd7732db004276d34bdff98081fd416312e68e2372e1690a405",
    "id": 86952082,
    "location_subtype": "",
    "month": "2020-09"
  },
  {
    "category": "burglary",
    "location_type": "Force",
    "location": {
      "latitude": "51.912694",
      "street": {
        "id": 708469,
        "name": "On or near Kingsmead Close"
      },
      "longitude": "-2.104291"
    },
    "context": "",
    "outcome_status": {
      "category": "Under investigation",
      "date": "2020-09"
    },
    "persistent_id": "2697182ad72b574b0eda4d5eb4f258e5488f480110a9dab5e581dac5edbfe5fe",
    "id": 86950576,
    "location_subtype": "",
    "month": "2020-09"
  },
  {
    "category": "burglary",
    "location_type": "Force",
    "location": {
      "latitude": "51.902166",
      "street": {
        "id": 707901,
        "name": "On or near Knapp Road"
      },
      "longitude": "-2.081346"
    },
    "context": "",
    "outcome_status": {
      "category": "Under investigation",
      "date": "2020-09"
    },
    "persistent_id": "195d5eb14161d17625a7db544330d5fcdbd4aa1589aede0551a60ba07dce6e1c",
    "id": 86949716,
    "location_subtype": "",
    "month": "2020-09"
  },
  {
    "category": "burglary",
    "location_type": "Force",
    "location": {
      "latitude": "51.903170",
      "street": {
        "id": 708056,
        "name": "On or near Alstone Lane"
      },
      "longitude": "-2.097075"
    },
    "context": "",
    "outcome_status": {
      "category": "Under investigation",
      "date": "2020-09"
    },
    "persistent_id": "68eee4b2c56c36b9f4e02c0b76ec9c5553cb50343cc6aa62ddb04fd012a29ec0",
    "id": 86949755,
    "location_subtype": "",
    "month": "2020-09"
  },
  {
    "category": "burglary",
    "location_type": "Force",
    "location": {
      "latitude": "51.904091",
      "street": {
        "id": 708576,
        "name": "On or near St Paul's Street South"
      },
      "longitude": "-2.079184"
    },
    "context": "",
    "outcome_status": {
      "category": "Under investigation",
      "date": "2020-09"
    },
    "persistent_id": "915b4dc46a051bc656117be360c2ea6b904456c2a556c96093a406745580e50c",
    "id": 86951264,
    "location_subtype": "",
    "month": "2020-09"
  },
  {
    "category": "burglary",
    "location_type": "Force",
    "location": {
      "latitude": "51.911194",
      "street": {
        "id": 708465,
        "name": "On or near Lipson Road"
      },
      "longitude": "-2.112240"
    },
    "context": "",
    "outcome_status": {
      "category": "Investigation complete; no suspect identified",
      "date": "2020-09"
    },
    "persistent_id": "106f6ff35b1af9cb4c696cfac0feaf1ae95558a25bb0691054d61ec1904bfd1a",
    "id": 86951007,
    "location_subtype": "",
    "month": "2020-09"
  },
  {
    "category": "burglary",
    "location_type": "Force",
    "location": {
      "latitude": "51.912062",
      "street": {
        "id": 708434,
        "name": "On or near Village Road"
      },
      "longitude": "-2.107503"
    },
    "context": "",
    "outcome_status": {
      "category": "Under investigation",
      "date": "2020-09"
    },
    "persistent_id": "e6de171ad6d9e5809280520f4edde622672af27f26616901c4d25d4b31073c06",
    "id": 86949746,
    "location_subtype": "",
    "month": "2020-09"
  },
  {
    "category": "burglary",
    "location_type": "Force",
    "location": {
      "latitude": "51.906917",
      "street": {
        "id": 708502,
        "name": "On or near Hawthorn Road"
      },
      "longitude": "-2.110107"
    },
    "context": "",
    "outcome_status": {
      "category": "Under investigation",
      "date": "2020-09"
    },
    "persistent_id": "9231e957dd3848596342c6a55486a2556bb1be5ad132fa1c681bfb913edb383b",
    "id": 86951237,
    "location_subtype": "",
    "month": "2020-09"
  },
  {
    "category": "criminal-damage-arson",
    "location_type": "Force",
    "location": {
      "latitude": "51.911782",
      "street": {
        "id": 708421,
        "name": "On or near Brook Road"
      },
      "longitude": "-2.098111"
    },
    "context": "",
    "outcome_status": {
      "category": "Unable to prosecute suspect",
      "date": "2020-09"
    },
    "persistent_id": "a5fc5e1b8c212edf226031fcf5386c4c34de2da8e541f98179b8d9fb8fca2292",
    "id": 86951127,
    "location_subtype": "",
    "month": "2020-09"
  },
  {
    "category": "criminal-damage-arson",
    "location_type": "Force",
    "location": {
      "latitude": "51.913352",
      "street": {
        "id": 708471,
        "name": "On or near Joyner Road"
      },
      "longitude": "-2.102883"
    },
    "context": "",
    "outcome_status": {
      "category": "Under investigation",
      "date": "2020-09"
    },
    "persistent_id": "25c999437081449ddeb9ac6bba9086145f6d1e3e51aea7ae1d0dbeaab3cfe571",
    "id": 86950619,
    "location_subtype": "",
    "month": "2020-09"
  },
  {
    "category": "criminal-damage-arson",
    "location_type": "Force",
    "location": {
      "latitude": "51.912929",
      "street": {
        "id": 708474,
        "name": "On or near George Readings Way"
      },
      "longitude": "-2.102984"
    },
    "context": "",
    "outcome_status": {
      "category": "Under investigation",
      "date": "2020-09"
    },
    "persistent_id": "db89ffc7b6a697ac6bef8075b4f71f5961ca69311333c668740ec0bbf21a9775",
    "id": 86950618,
    "location_subtype": "",
    "month": "2020-09"
  },
  {
    "category": "criminal-damage-arson",
    "location_type": "Force",
    "location": {
      "latitude": "51.900693",
      "street": {
        "id": 707943,
        "name": "On or near St George's Place"
      },
      "longitude": "-2.079367"
    },
    "context": "",
    "outcome_status": {
      "category": "Under investigation",
      "date": "2020-09"
    },
    "persistent_id": "94614a8975175a7d009df4c3de1982e30e595d23ff2e37c75d508d119a0acfa8",
    "id": 86952763,
    "location_subtype": "",
    "month": "2020-09"
  },
  {
    "category": "criminal-damage-arson",
    "location_type": "Force",
    "location": {
      "latitude": "51.911782",
      "street": {
        "id": 708421,
        "name": "On or near Brook Road"
      },
      "longitude": "-2.098111"
    },
    "context": "",
    "outcome_status": {
      "category": "Investigation complete; no suspect identified",
      "date": "2020-09"
    },
    "persistent_id": "24432ddcced453cda63097db99b62e54916ab7b30e36f37f1a75d07bc9c23a26",
    "id": 86951128,
    "location_subtype": "",
    "month": "2020-09"
  },
  {
    "category": "criminal-damage-arson",
    "location_type": "Force",
    "location": {
      "latitude": "51.911262",
      "street": {
        "id": 708424,
        "name": "On or near St Peter's Square"
      },
      "longitude": "-2.097063"
    },
    "context": "",
    "outcome_status": {
      "category": "Investigation complete; no suspect identified",
      "date": "2020-09"
    },
    "persistent_id": "ea89cf75bfdf690d81544fe6df8b17eab02e8c2f715451a60ddf22fad35ab71b",
    "id": 86951193,
    "location_subtype": "",
    "month": "2020-09"
  },
  {
    "category": "criminal-damage-arson",
    "location_type": "Force",
    "location": {
      "latitude": "51.911262",
      "street": {
        "id": 708424,
        "name": "On or near St Peter's Square"
      },
      "longitude": "-2.097063"
    },
    "context": "",
    "outcome_status": {
      "category": "Investigation complete; no suspect identified",
      "date": "2020-09"
    },
    "persistent_id": "52042593a2b1c793253d12989b096680143752057c6870d0a9d3aa71f248f070",
    "id": 86951330,
    "location_subtype": "",
    "month": "2020-09"
  },
  {
    "category": "criminal-damage-arson",
    "location_type": "Force",
    "location": {
      "latitude": "51.911262",
      "street": {
        "id": 708424,
        "name": "On or near St Peter's Square"
      },
      "longitude": "-2.097063"
    },
    "context": "",
    "outcome_status": {
      "category": "Investigation complete; no suspect identified",
      "date": "2020-09"
    },
    "persistent_id": "fa1089ad87d32751ae31bb55e56b9c3f42fd8c35c0007d9b4b6cc11449b25802",
    "id": 86951331,
    "location_subtype": "",
    "month": "2020-09"
  },
  {
    "category": "criminal-damage-arson",
    "location_type": "Force",
    "location": {
      "latitude": "51.903792",
      "street": {
        "id": 708548,
        "name": "On or near Park Street"
      },
      "longitude": "-2.083675"
    },
    "context": "",
    "outcome_status": {
      "category": "Investigation complete; no suspect identified",
      "date": "2020-09"
    },
    "persistent_id": "3e2ec80a53b1c45636873a8b7477a61c1e3b71b09ae2169dd4f3a2a5d4671ec0",
    "id": 86951416,
    "location_subtype": "",
    "month": "2020-09"
  },
  {
    "category": "criminal-damage-arson",
    "location_type": "Force",
    "location": {
      "latitude": "51.906854",
      "street": {
        "id": 708641,
        "name": "On or near Petrol Station"
      },
      "longitude": "-2.088245"
    },
    "context": "",
    "outcome_status": {
      "category": "Investigation complete; no suspect identified",
      "date": "2020-09"
    },
    "persistent_id": "4510911b790f5f849f815e2d6772fc041c9c1e4a62ab1eedd419cdcdecc7c859",
    "id": 86951456,
    "location_subtype": "",
    "month": "2020-09"
  },
  {
    "category": "criminal-damage-arson",
    "location_type": "Force",
    "location": {
      "latitude": "51.894799",
      "street": {
        "id": 707976,
        "name": "On or near Lansdown Walk"
      },
      "longitude": "-2.086652"
    },
    "context": "",
    "outcome_status": {
      "category": "Unable to prosecute suspect",
      "date": "2020-09"
    },
    "persistent_id": "8b3187e926b19751000175b4164b6009a6e8d8e9d383aecc777e67d5d8b29d30",
    "id": 86951813,
    "location_subtype": "",
    "month": "2020-09"
  },
  {
    "category": "criminal-damage-arson",
    "location_type": "Force",
    "location": {
      "latitude": "51.902850",
      "street": {
        "id": 707917,
        "name": "On or near Alstone Avenue"
      },
      "longitude": "-2.092365"
    },
    "context": "",
    "outcome_status": {
      "category": "Under investigation",
      "date": "2020-09"
    },
    "persistent_id": "7faf1e3bb8891e42b0f2919f7fe1b6556bdb34b66274966f33dd91efa69c5676",
    "id": 86949723,
    "location_subtype": "",
    "month": "2020-09"
  },
  {
    "category": "criminal-damage-arson",
    "location_type": "Force",
    "location": {
      "latitude": "51.902850",
      "street": {
        "id": 707917,
        "name": "On or near Alstone Avenue"
      },
      "longitude": "-2.092365"
    },
    "context": "",
    "outcome_status": {
      "category": "Under investigation",
      "date": "2020-09"
    },
    "persistent_id": "770344251b2e7faa66499dfebe8e9bba3876669b995065e7497f8436b01418ff",
    "id": 86949722,
    "location_subtype": "",
    "month": "2020-09"
  },
  {
    "category": "criminal-damage-arson",
    "location_type": "Force",
    "location": {
      "latitude": "51.915392",
      "street": {
        "id": 708416,
        "name": "On or near Petrol Station"
      },
      "longitude": "-2.103018"
    },
    "context": "",
    "outcome_status": {
      "category": "Investigation complete; no suspect identified",
      "date": "2020-09"
    },
    "persistent_id": "82ffa4a70dcfc769e79cdd5d6f61cacd99bb72ed7d57d158b1e047da832c4099",
    "id": 86949553,
    "location_subtype": "",
    "month": "2020-09"
  },
  {
    "category": "criminal-damage-arson",
    "location_type": "Force",
    "location": {
      "latitude": "51.911194",
      "street": {
        "id": 708465,
        "name": "On or near Lipson Road"
      },
      "longitude": "-2.112240"
    },
    "context": "",
    "outcome_status": {
      "category": "Investigation complete; no suspect identified",
      "date": "2020-09"
    },
    "persistent_id": "86566c5d6bb9adda8b94b7b6fac5cde641577755b10d9ced7bce682b080460e1",
    "id": 86951079,
    "location_subtype": "",
    "month": "2020-09"
  },
  {
    "category": "criminal-damage-arson",
    "location_type": "Force",
    "location": {
      "latitude": "51.895490",
      "street": {
        "id": 707982,
        "name": "On or near Lansdown Crescent"
      },
      "longitude": "-2.087307"
    },
    "context": "",
    "outcome_status": {
      "category": "Unable to prosecute suspect",
      "date": "2020-09"
    },
    "persistent_id": "4af76d7298bf7827cc0d4058f839f6ea5ab2b23b495a91a544c7fda87220ed04",
    "id": 86949769,
    "location_subtype": "",
    "month": "2020-09"
  },
  {
    "category": "criminal-damage-arson",
    "location_type": "Force",
    "location": {
      "latitude": "51.911782",
      "street": {
        "id": 708421,
        "name": "On or near Brook Road"
      },
      "longitude": "-2.098111"
    },
    "context": "",
    "outcome_status": {
      "category": "Under investigation",
      "date": "2020-09"
    },
    "persistent_id": "6995153beec0d66d0d7074eb827eb1d5cd760be1c1ffedd6b7534dedae72ab6a",
    "id": 86951123,
    "location_subtype": "",
    "month": "2020-09"
  },
  {
    "category": "criminal-damage-arson",
    "location_type": "Force",
    "location": {
      "latitude": "51.910623",
      "street": {
        "id": 708425,
        "name": "On or near Moors Avenue"
      },
      "longitude": "-2.096931"
    },
    "context": "",
    "outcome_status": {
      "category": "Under investigation",
      "date": "2020-09"
    },
    "persistent_id": "0ed19f93683ed1fe2c621075ffd5b76730621fbc6be6e1fd8b91d0e10d32f707",
    "id": 86951125,
    "location_subtype": "",
    "month": "2020-09"
  },
  {
    "category": "criminal-damage-arson",
    "location_type": "Force",
    "location": {
      "latitude": "51.904646",
      "street": {
        "id": 708586,
        "name": "On or near Poole Way"
      },
      "longitude": "-2.082543"
    },
    "context": "",
    "outcome_status": {
      "category": "Under investigation",
      "date": "2020-09"
    },
    "persistent_id": "7bd53c537a280ddae01129ab8da57787ba831f021e85199b54b798a50cfa086b",
    "id": 86949165,
    "location_subtype": "",
    "month": "2020-09"
  },
  {
    "category": "criminal-damage-arson",
    "location_type": "Force",
    "location": {
      "latitude": "51.900840",
      "street": {
        "id": 708088,
        "name": "On or near Sports/recreation Area"
      },
      "longitude": "-2.109118"
    },
    "context": "",
    "outcome_status": {
      "category": "Under investigation",
      "date": "2020-09"
    },
    "persistent_id": "4e5153e77098fdebb02be93477d1a5d2aa1cb909e2d07dc83be1de164b8847fa",
    "id": 86949632,
    "location_subtype": "",
    "month": "2020-09"
  },
  {
    "category": "criminal-damage-arson",
    "location_type": "Force",
    "location": {
      "latitude": "51.911194",
      "street": {
        "id": 708465,
        "name": "On or near Lipson Road"
      },
      "longitude": "-2.112240"
    },
    "context": "",
    "outcome_status": {
      "category": "Under investigation",
      "date": "2020-09"
    },
    "persistent_id": "2fd74b3c74e4d04bd00a24b3740af80b46d06b1a338b1a5b313ac2ccfe9823ae",
    "id": 86949372,
    "location_subtype": "",
    "month": "2020-09"
  },
  {
    "category": "criminal-damage-arson",
    "location_type": "Force",
    "location": {
      "latitude": "51.910301",
      "street": {
        "id": 708575,
        "name": "On or near St Peters Close"
      },
      "longitude": "-2.095607"
    },
    "context": "",
    "outcome_status": {
      "category": "Under investigation",
      "date": "2020-09"
    },
    "persistent_id": "37b888fea8db6478189715874810c04727ee8838314e099aa0bd51c4b2b84d1e",
    "id": 86951175,
    "location_subtype": "",
    "month": "2020-09"
  },
  {
    "category": "criminal-damage-arson",
    "location_type": "Force",
    "location": {
      "latitude": "51.910301",
      "street": {
        "id": 708575,
        "name": "On or near St Peters Close"
      },
      "longitude": "-2.095607"
    },
    "context": "",
    "outcome_status": {
      "category": "Under investigation",
      "date": "2020-09"
    },
    "persistent_id": "1d06f11257ddb26c47f6c5440c1f9e0ac842a4245393b896e709db8a10792c67",
    "id": 86951174,
    "location_subtype": "",
    "month": "2020-09"
  },
  {
    "category": "criminal-damage-arson",
    "location_type": "Force",
    "location": {
      "latitude": "51.904417",
      "street": {
        "id": 708480,
        "name": "On or near Cornwall Avenue"
      },
      "longitude": "-2.100624"
    },
    "context": "",
    "outcome_status": {
      "category": "Under investigation",
      "date": "2020-09"
    },
    "persistent_id": "df1e293765730470d8bf0a97b60841b90c5f16677205543cf3cfd11ace49654d",
    "id": 86951695,
    "location_subtype": "",
    "month": "2020-09"
  },
  {
    "category": "criminal-damage-arson",
    "location_type": "Force",
    "location": {
      "latitude": "51.907796",
      "street": {
        "id": 708460,
        "name": "On or near Montreal Drive"
      },
      "longitude": "-2.111330"
    },
    "context": "",
    "outcome_status": {
      "category": "Under investigation",
      "date": "2020-09"
    },
    "persistent_id": "69265cf1ac0abc93982dc70145ee63f0a11c8936a655bb0ac6c5f9134a87802a",
    "id": 86951588,
    "location_subtype": "",
    "month": "2020-09"
  },
  {
    "category": "criminal-damage-arson",
    "location_type": "Force",
    "location": {
      "latitude": "51.905510",
      "street": {
        "id": 708437,
        "name": "On or near Stone Crescent"
      },
      "longitude": "-2.104391"
    },
    "context": "",
    "outcome_status": {
      "category": "Under investigation",
      "date": "2020-09"
    },
    "persistent_id": "106f9a2f9e3010b53411271b50559aa2071bfbb0bb81b11903675bf159e00a59",
    "id": 86951508,
    "location_subtype": "",
    "month": "2020-09"
  },
  {
    "category": "criminal-damage-arson",
    "location_type": "Force",
    "location": {
      "latitude": "51.907712",
      "street": {
        "id": 708560,
        "name": "On or near Vine Court"
      },
      "longitude": "-2.083348"
    },
    "context": "",
    "outcome_status": {
      "category": "Under investigation",
      "date": "2020-09"
    },
    "persistent_id": "04cb7137837c249d25181593a1c61d6fdd6ccb976ed5024177d7200fb3b89ee8",
    "id": 86951418,
    "location_subtype": "",
    "month": "2020-09"
  },
  {
    "category": "criminal-damage-arson",
    "location_type": "Force",
    "location": {
      "latitude": "51.908983",
      "street": {
        "id": 708559,
        "name": "On or near Waterloo Street"
      },
      "longitude": "-2.090633"
    },
    "context": "",
    "outcome_status": {
      "category": "Under investigation",
      "date": "2020-09"
    },
    "persistent_id": "f67817d17065d0e8b9d696edfce5216142c74ec4098773366f28196a7d49a2dd",
    "id": 86951395,
    "location_subtype": "",
    "month": "2020-09"
  },
  {
    "category": "criminal-damage-arson",
    "location_type": "Force",
    "location": {
      "latitude": "51.901654",
      "street": {
        "id": 707908,
        "name": "On or near Gloucester Road"
      },
      "longitude": "-2.092043"
    },
    "context": "",
    "outcome_status": {
      "category": "Under investigation",
      "date": "2020-09"
    },
    "persistent_id": "fe30604be31bf2460d12ab5bce9d87de68b1189b0f2a999b2cd5838ec589115f",
    "id": 86951603,
    "location_subtype": "",
    "month": "2020-09"
  },
  {
    "category": "criminal-damage-arson",
    "location_type": "Force",
    "location": {
      "latitude": "51.907871",
      "street": {
        "id": 708454,
        "name": "On or near Oldbury Close"
      },
      "longitude": "-2.117843"
    },
    "context": "",
    "outcome_status": {
      "category": "Investigation complete; no suspect identified",
      "date": "2020-09"
    },
    "persistent_id": "9bb36e21f91f6cdac7fdc8ae408c9cc111f3a2a62b07a105e31176a4fccc595d",
    "id": 86950521,
    "location_subtype": "",
    "month": "2020-09"
  },